- zone_spv:
  name: SPV
  latitude: 62.388466
  longitude: 17.295939
  radius: 200
  icon: mdi:briefcase

- zone_sjukhuset:
  name: Sjukhuset
  latitude: 62.408067
  longitude: 17.305611
  radius: 300
  icon: mdi:hospital

- zone_birsta:
  name: Birsta
  latitude: 62.443331
  longitude: 17.330839
  radius: 700
  icon: mdi:cart

- zone_matfors_skola:
  name: Matfors skola
  latitude: 62.347147
  longitude: 17.018588
  radius: 100
  icon: mdi:school

- zone_skvaderns_skola:
  name: Skvaderns skola
  latitude: 62.3990879
  longitude: 17.3120409
  radius: 150
  icon: mdi:school

- zone_vardingeby:
  name: Vårdingeby
  latitude: 58.9911263
  longitude: 17.4196908
  radius: 500
  icon: mdi:school

- zone_lisbeth:
  name: Järna
  latitude: 59.0920463
  longitude: 17.5700278
  radius: 500
  icon: mdi:home